{
   "type":"FeatureCollection",
   "features":[
	{
         "type":"Feature",
         "properties":{
            "ID":"1850",
            "STATION":"LA DEFENSE",
            "CITY":"Puteaux",
            "QUARTER":"",
            "TRAFIC":"14275382",
            "LINES":"1",
            "COLORS":"#F2C931"
         },
         "geometry":{
            "type":"Point",
            "coordinates":[
               2.23788279833084,
               48.8919344692345
            ]
         }
      },
      {
         "type":"Feature",
         "properties":{
            "ID":"1913",
            "STATION":"ESPLANADE DE LA DEFENSE",
            "CITY":"Puteaux",
            "QUARTER":"",
            "TRAFIC":"9843051",
            "LINES":"1",
            "COLORS":"#F2C931"
         },
         "geometry":{
            "type":"Point",
            "coordinates":[
               2.25044232471862,
               48.887843122138
            ]
         }
      },
	{
         "type":"Feature",
         "properties":{
            "ID":"1709",
            "STATION":"PONT DE NEUILLY",
            "CITY":"Neuilly Sur Seine",
            "QUARTER":"",
            "TRAFIC":"6902931",
            "LINES":"1",
            "COLORS":"#F2C931"
         },
         "geometry":{
            "type":"Point",
            "coordinates":[
               2.25989172465632,
               48.8845093796136
            ]
         }
      },
	{
         "type":"Feature",
         "properties":{
            "ID":"1802",
            "STATION":"LES SABLONS",
            "CITY":"Neuilly Sur Seine",
            "QUARTER":"",
            "TRAFIC":"5439982",
            "LINES":"1",
            "COLORS":"#F2C931"
         },
         "geometry":{
            "type":"Point",
            "coordinates":[
               2.27253908542214,
               48.880901799077
            ]
         }
      },
{
         "type":"Feature",
         "properties":{
            "ID":"1716",
            "STATION":"PORTE MAILLOT",
            "CITY":"Paris",
            "QUARTER":"16",
            "TRAFIC":"8998134",
            "LINES":"1",
            "COLORS":"#F2C931"
         },
         "geometry":{
            "type":"Point",
            "coordinates":[
               2.28183617255428,
               48.877964502968
            ]
         }
      },
{
         "type":"Feature",
         "properties":{
            "ID":"1986",
            "STATION":"ARGENTINE",
            "CITY":"Paris",
            "QUARTER":"17",
            "TRAFIC":"2932686",
            "LINES":"1",
            "COLORS":"#F2C931"
         },
         "geometry":{
            "type":"Point",
            "coordinates":[
               2.2893216639617,
               48.875533092935
            ]
         }
      },
{
         "type":"Feature",
         "properties":{
            "ID":"1953",
            "STATION":"CHARLES DE GAULLE-ETOILE",
            "CITY":"Paris",
            "QUARTER":"8",
            "TRAFIC":"9067635",
            "LINES":"1",
            "COLORS":"#F2C931"
         },
         "geometry":{
            "type":"Point",
            "coordinates":[
               2.29576268465124,
               48.8744076036607
            ]
         }
      },
{
         "type":"Feature",
         "properties":{
            "ID":"1846",
            "STATION":"GEORGE V",
            "CITY":"Paris",
            "QUARTER":"8",
            "TRAFIC":"6302761",
            "LINES":"1",
            "COLORS":"#F2C931"
         },
         "geometry":{
            "type":"Point",
            "coordinates":[
               2.30046268343343,
               48.8719825731694
            ]
         }
      },
{
         "type":"Feature",
         "properties":{
            "ID":"1924",
            "STATION":"FRANKLIN D. ROOSEVELT",
            "CITY":"Paris",
            "QUARTER":"12",
            "TRAFIC":"5878175",
            "LINES":"1",
            "COLORS":"#F2C931"
         },
         "geometry":{
            "type":"Point",
            "coordinates":[
               2.30830876451203,
               48.8693052286485
            ]
         }
      },
{
         "type":"Feature",
         "properties":{
            "ID":"1949",
            "STATION":"CHAMPS-ELYSEES-CLEMENCEAU",
            "CITY":"Paris",
            "QUARTER":"8",
            "TRAFIC":"4617843",
            "LINES":"1",
            "COLORS":"#F2C931"
         },
         "geometry":{
            "type":"Point",
            "coordinates":[
               2.31395945009909,
               48.8674114214171
            ]
         }
      },
{
         "type":"Feature",
         "properties":{
            "ID":"1885",
            "STATION":"CONCORDE",
            "CITY":"Paris",
            "QUARTER":"8",
            "TRAFIC":"7176639",
            "LINES":"1",
            "COLORS":"#F2C931"
         },
         "geometry":{
            "type":"Point",
            "coordinates":[
               2.32329987859148,
               48.8661829956315
            ]
         }
      },
{
         "type":"Feature",
         "properties":{
            "ID":"1640",
            "STATION":"TUILERIES",
            "CITY":"Paris",
            "QUARTER":"1",
            "TRAFIC":"2616916",
            "LINES":"1",
            "COLORS":"#F2C931"
         },
         "geometry":{
            "type":"Point",
            "coordinates":[
               2.33031418026416,
               48.8644970966975
            ]
         }
      },
 {
         "type":"Feature",
         "properties":{
            "ID":"1774",
            "STATION":"PALAIS ROYAL-MUSEE DU LOUVRE",
            "CITY":"Paris",
            "QUARTER":"1",
            "TRAFIC":"9385220",
            "LINES":"1",
            "COLORS":"#F2C931"
         },
         "geometry":{
            "type":"Point",
            "coordinates":[
               2.33581661194832,
               48.8628468213553
            ]
         }
      },  
{
         "type":"Feature",
         "properties":{
            "ID":"1809",
            "STATION":"LOUVRE-RIVOLI",
            "CITY":"Paris",
            "QUARTER":"1",
            "TRAFIC":"2650897",
            "LINES":"1",
            "COLORS":"#F2C931"
         },
         "geometry":{
            "type":"Point",
            "coordinates":[
               2.34100049025543,
               48.8605382946574
            ]
         }
      },
{
         "type":"Feature",
         "properties":{
            "ID":"1964",
            "STATION":"CHATELET",
            "CITY":"Paris",
            "QUARTER":"1",
            "TRAFIC":"13929657",
            "LINES":"1",
            "COLORS":"#F2C931"
         },
         "geometry":{
            "type":"Point",
            "coordinates":[
               2.34711940104793,
               48.8585195224421
            ]
         }
      },
{
         "type":"Feature",
         "properties":{
            "ID":"1855",
            "STATION":"HOTEL DE VILLE",
            "CITY":"Paris",
            "QUARTER":"4",
            "TRAFIC":"11953352",
            "LINES":"1",
            "COLORS":"#F2C931"
         },
         "geometry":{
            "type":"Point",
            "coordinates":[
               2.35149453979435,
               48.8567695272423
            ]
         }
      },
{
         "type":"Feature",
         "properties":{
            "ID":"1695",
            "STATION":"SAINT-PAUL",
            "CITY":"Paris",
            "QUARTER":"4",
            "TRAFIC":"6515486",
            "LINES":"1",
            "COLORS":"#F2C931"
         },
         "geometry":{
            "type":"Point",
            "coordinates":[
               2.36065335403361,
               48.8551436006388
            ]
         }
      },
{
         "type":"Feature",
         "properties":{
            "ID":"2000",
            "STATION":"BASTILLE",
            "CITY":"Paris",
            "QUARTER":"12",
            "TRAFIC":"13706765",
            "LINES":"1",
            "COLORS":"#F2C931"
         },
         "geometry":{
            "type":"Point",
            "coordinates":[
               2.36918060506559,
               48.8528417309667
            ]
         }
      },
{
         "type":"Feature",
         "properties":{
            "ID":"1839",
            "STATION":"GARE DE LYON ",
            "CITY":"Paris",
            "QUARTER":"12",
            "TRAFIC":"34895701",
            "LINES":"1",
            "COLORS":"#F2C931"
         },
         "geometry":{
            "type":"Point",
            "coordinates":[
               2.37406590751466,
               48.8447045450658
            ]
         }
      },
{
         "type":"Feature",
         "properties":{
            "ID":"1662",
            "STATION":"REUILLY-DIDEROT",
            "CITY":"Paris",
            "QUARTER":"12",
            "TRAFIC":"5662974",
            "LINES":"1",
            "COLORS":"#F2C931"
         },
         "geometry":{
            "type":"Point",
            "coordinates":[
               2.38611818658013,
               48.8472381327386
            ]
         }
      },
{
         "type":"Feature",
         "properties":{
            "ID":"1758",
            "STATION":"NATION",
            "CITY":"Paris",
            "QUARTER":"12",
            "TRAFIC":"9541406",
            "LINES":"1",
            "COLORS":"#F2C931"
         },
         "geometry":{
            "type":"Point",
            "coordinates":[
               2.39590574456544,
               48.8484657505532
            ]
         }
      },
{
         "type":"Feature",
         "properties":{
            "ID":"1733",
            "STATION":"PORTE DE VINCENNES",
            "CITY":"Paris",
            "QUARTER":"12",
            "TRAFIC":"5878175",
            "LINES":"1",
            "COLORS":"#F2C931"
         },
         "geometry":{
            "type":"Point",
            "coordinates":[
               2.40888352534985,
               48.8472657113718
            ]
         }
      }, 
{
         "type":"Feature",
         "properties":{
            "ID":"1690",
            "STATION":"SAINT-MANDE",
            "CITY":"Paris",
            "QUARTER":"15",
            "TRAFIC":"1895590",
            "LINES":"1",
            "COLORS":"#F2C931"
         },
         "geometry":{
            "type":"Point",
            "coordinates":[
               2.41867310093048,
               48.8462977572576
            ]
         }
      },
{
         "type":"Feature",
         "properties":{
            "ID":"1938",
            "STATION":"BERAULT",
            "CITY":"Vincennes",
            "QUARTER":"",
            "TRAFIC":"2723583",
            "LINES":"1",
            "COLORS":"#F2C931"
         },
         "geometry":{
            "type":"Point",
            "coordinates":[
               2.42923849792977,
               48.8453342425325
            ]
         }
      },
     {
         "type":"Feature",
         "properties":{
            "ID":"1962",
            "STATION":"CHATEAU DE VINCENNES",
            "CITY":"Vincennes",
            "QUARTER":"",
            "TRAFIC":"5122469",
            "LINES":"1",
            "COLORS":"#F2C931"
         },
         "geometry":{
            "type":"Point",
            "coordinates":[
               2.43950970545674,
               48.8445363116503
            ]
         }
      }
   ]
}